[
    {
        "id": "alliston",
        "name": "Alliston",
        "location": {
            "longitude": -79.870798,
            "latitude": 44.149035,
            "address": "Gibson Centre, 63 Tupper Street West"
        }
    },
    {
        "id": "sandbanks",
        "name": "Sandbanks",

        "location": {
            "longitude": -77.2674762,
            "latitude": 43.9188665,
            "address": "The Meeting House Sandbanks, 1901 County Rd 12"
        }
    },
    {
        "id": "ancaster",
        "name": "Ancaster",

        "location": {
            "longitude": -79.95394369999997,
            "latitude": 43.2272571,
            "address": "SilverCity Ancaster, 771 Golf Links Road"
        }
    },
    {
        "id": "brampton",
        "name": "Brampton",

        "location": {
            "longitude": -79.768112,
            "latitude": 43.733024,
            "address": "SilverCity Brampton, 50 Great Lakes Drive"
        }
    },
    {
        "id": "brantford",
        "name": "Brantford",

        "location": {
            "longitude": -80.278012,
            "latitude": 43.182376,
            "address": "Galaxy Cinemas Brantford, 300 King George Road"
        }
    },
    {
        "id": "burlington",
        "name": "Burlington",

        "location": {
            "longitude": -79.829876,
            "latitude": 43.343507,
            "address": "SilverCity Burlington, 1250 Brant Street"
        }
    },
    {
        "id": "hamilton-downtown",
        "name": "Hamilton Downtown",

        "location": {
            "longitude": -79.8702504,
            "latitude": 43.26213,
            "address": "The Meeting House Downtown Hamilton, 130 Victoria Avenue North"
        }
    },
    {
        "id": "toronto-downtown",
        "name": "Toronto Downtown",

        "location": {
            "longitude": -79.391418,
            "latitude": 43.648869,
            "address": "Scotiabank Theatre Toronto, 259 Richmond Street West"
        }
    },
    {
        "id": "hamilton-mountain",
        "name": "Hamilton Mountain",

        "location": {
            "longitude": -79.808856,
            "latitude": 43.193331,
            "address": "SilverCity Hamilton Mountain, 795 Paramount Drive"
        }
    },
    {
        "id": "toronto-east",
        "name": "Toronto East",

        "location": {
            "longitude":-79.3166538,
            "latitude": 43.6664844,
            "address": "The Beach Alliance Theatre, 1651 Queen Street East"
        }
    },
    {
        "id": "toronto-high-park",
        "name": "Toronto High Park",

        "location": {
            "longitude": -79.4744334,
            "latitude": 43.6578297,
            "address": "The Meeting House High Park, 125 Evelyn Crescent"
        }
    },
    {
        "id": "kitchener",
        "name": "Kitchener",

        "location": {
            "longitude": -80.387502,
            "latitude": 43.4054,
            "address": "Landmark Cinemas 12, 135 Gateway Park Drive"
        }
    },
    {
        "id": "london",
        "name": "London",

        "location": {
            "longitude": -81.278295,
            "latitude": 43.027068,
            "address": "SilverCity London, 1680 Richmond Street"
        }
    },
    {
        "id": "newmarket",
        "name": "Newmarket",

        "location": {
            "longitude": -79.555998,
            "latitude": 43.79428,
            "address": "SilverCity Newmarket, 18195 Yonge Street"
        }
    },
    {
        "id": "oakville",
        "name": "Oakville",

        "location": {
            "longitude": -79.685926,
            "latitude": 43.511459,
            "address": "Oakville Production Site, 2700 Bristol Circle"
        }
    },
    {
        "id": "ottawa",
        "name": "Ottawa",

        "location": {
            "longitude": -75.613528,
            "latitude": 45.431384,
            "address": "Lansdowne Cineplex, 325 March√© Way"
        }
    },
    {
        "id": "owen-sound",
        "name": "Owen Sound",

        "location": {
            "longitude": -80.933555,
            "latitude": 44.573804,
            "address": "St. Mary's High School, 555 15th Street East"
        }
    },
    {
        "id": "parry-sound",
        "name": "Parry Sound",

        "location": {
            "longitude": -80.036396,
            "latitude": 45.35407,
            "address": "Parry Sound Community Hub, 86 Gibson St."
        }
    },
    {
        "id": "richmond-hill",
        "name": "Richmond Hill",

        "location": {
            "longitude": -79.4291884,
            "latitude": 43.8408015,
            "address": "SilverCity Richmond Hill, 8725 Yonge Street"
        }
    },
    {
        "id": "toronto-uptown",
        "name": "Toronto Uptown",

        "location": {
            "longitude": -79.58688,
            "latitude": 43.70752,
            "address": "Yorkdale Cineplex, 3401 Dufferin Street"
        }
    },
    {
        "id": "waterloo",
        "name": "Waterloo",

        "location": {
            "longitude": -80.527216,
            "latitude": 43.498807,
            "address": "Galaxy Cinemas | Conestoga Mall, 550 King Street North"
        }
    }
]